[
  {
    "storeName": "LG베스트샵 강남본점",
    "region": "서울시 강남구",
    "category": "LG베스트샵",
    "latitude": 37.4971369,
    "longitude": 127.0705665,
    "address": "서울특별시 강남구 대치동 50-8",
    "roadAddress": "서울특별시 강남구 영동대로 202",
    "matchedName": "LG전자 베스트샵 대치본점",
    "geocoded": true,
    "approximate": false,
    "source": "naver_local"
  },
  {
    "storeName": "LG베스트샵 강동본점",
    "region": "서울특별시 강동구",
    "category": "LG베스트샵",
    "latitude": 37.5355362,
    "longitude": 127.1386908,
    "address": "서울특별시 강동구 길동 413-45",
    "roadAddress": "서울특별시 강동구 양재대로 1449",
    "matchedName": "LG전자 베스트샵 강동본점",
    "geocoded": true,
    "approximate": false,
    "source": "naver_local"
  },
  {
    "storeName": "LG베스트샵 강북본점",
    "region": "서울 강북구",
    "category": "LG베스트샵",
    "latitude": 37.6186704,
    "longitude": 127.028835,
    "address": "서울특별시 강북구 미아동 330-15 LG전자 베스트샵 강북본점",
    "roadAddress": "서울특별시 강북구 도봉로 109 LG전자 베스트샵 강북본점",
    "matchedName": "LG전자 베스트샵 강북본점",
    "geocoded": true,
    "approximate": false,
    "source": "naver_local"
  },
  {
    "storeName": "LG베스트샵 강서본점",
    "region": "서울특별시 강서구",
    "category": "LG베스트샵",
    "latitude": 37.5552572,
    "longitude": 126.8552447,
    "address": "서울특별시 강서구 등촌동 655-42",
    "roadAddress": "서울특별시 강서구 공항대로 431",
    "matchedName": "LG전자 베스트샵 강서본점",
    "geocoded": true,
    "approximate": false,
    "source": "naver_local"
  },
  {
    "storeName": "LG베스트샵 관악점",
    "region": "서울 관악구",
    "category": "LG베스트샵",
    "latitude": 37.4895951,
    "longitude": 126.9247879,
    "address": "서울특별시 관악구 신림동 1444-8",
    "roadAddress": "서울특별시 관악구 봉천로 210",
    "matchedName": "LG전자 베스트샵 관악점",
    "geocoded": true,
    "approximate": false,
    "source": "naver_local"
  },
  {
    "storeName": "LG베스트샵 광진본점",
    "region": "서울특별시 광진구",
    "category": "LG베스트샵",
    "latitude": 37.5569178,
    "longitude": 127.0813744,
    "address": "서울특별시 광진구 중곡동 341-10 베스트샵 광진본점",
    "roadAddress": "서울특별시 광진구 천호대로 567 베스트샵 광진본점",
    "matchedName": "LG전자 베스트샵 광진본점",
    "geocoded": true,
    "approximate": false,
    "source": "naver_local"
  },
  {
    "storeName": "LG베스트샵 광진스타점",
    "region": "서울특별시 광진구",
    "category": "LG베스트샵",
    "latitude": 37.5379627,
    "longitude": 127.0763511,
    "address": "서울특별시 광진구 자양동 227-318 2층",
    "roadAddress": "서울특별시 광진구 아차산로 302 2층",
    "matchedName": "LG전자 베스트샵 광진스타점",
    "geocoded": true,
    "approximate": false,
    "source": "naver_local"
  },
  {
    "storeName": "LG베스트샵 구로본점",
    "region": "서울 구로구",
    "category": "LG베스트샵",
    "latitude": 37.4983191,
    "longitude": 126.8646066,
    "address": "서울특별시 구로구 고척동 76-74",
    "roadAddress": "서울특별시 구로구 경인로 405",
    "matchedName": "LG전자 베스트샵 구로본점",
    "geocoded": true,
    "approximate": false,
    "source": "naver_local"
  },
  {
    "storeName": "LG베스트샵 금천본점",
    "region": "서울 금천구",
    "category": "LG베스트샵",
    "latitude": 37.4691836,
    "longitude": 126.8985109,
    "address": "서울특별시 금천구 독산동 1012",
    "roadAddress": "서울특별시 금천구 시흥대로 398",
    "matchedName": "LG전자 베스트샵 금천본점",
    "geocoded": true,
    "approximate": false,
    "source": "naver_local"
  },
  {
    "storeName": "LG베스트샵 노원본점",
    "region": "서울 노원구",
    "category": "LG베스트샵",
    "latitude": 37.6285801,
    "longitude": 127.071023,
    "address": "서울특별시 노원구 공릉동 323-1",
    "roadAddress": "서울특별시 노원구 동일로 1107",
    "matchedName": "LG전자 베스트샵 노원본점",
    "geocoded": true,
    "approximate": false,
    "source": "naver_local"
  },
  {
    "storeName": "LG베스트샵 대치본점",
    "region": "서울 강남구",
    "category": "LG베스트샵",
    "latitude": 37.4971369,
    "longitude": 127.0705665,
    "address": "서울특별시 강남구 대치동 50-8",
    "roadAddress": "서울특별시 강남구 영동대로 202",
    "matchedName": "LG전자 베스트샵 대치본점",
    "geocoded": true,
    "approximate": false,
    "source": "naver_local"
  },
  {
    "storeName": "LG베스트샵 동교점",
    "region": "서울 마포구",
    "category": "LG베스트샵",
    "latitude": 37.55841,
    "longitude": 126.9268289,
    "address": "서울특별시 마포구 동교동 173-3",
    "roadAddress": "서울특별시 마포구 신촌로 6",
    "matchedName": "LG전자 베스트샵 동교점",
    "geocoded": true,
    "approximate": false,
    "source": "naver_local"
  },
  {
    "storeName": "LG베스트샵 마포점",
    "region": "서울특별시 마포구",
    "category": "LG베스트샵",
    "latitude": 37.562024,
    "longitude": 126.905115,
    "address": "서울특별시 마포구 성산동 266-1 LG전자 베스트샵 마포점",
    "roadAddress": "서울특별시 마포구 월드컵로 158 LG전자 베스트샵 마포점",
    "matchedName": "LG전자 베스트샵 마포점",
    "geocoded": true,
    "approximate": false,
    "source": "naver_local"
  },
  {
    "storeName": "LG베스트샵 목동점",
    "region": "서울특별시 양천구",
    "category": "LG베스트샵",
    "latitude": 37.5243521,
    "longitude": 126.8743261,
    "address": "서울특별시 양천구 목동 405-112",
    "roadAddress": "서울특별시 양천구 오목로 332",
    "matchedName": "나이스파크 LG베스트샵 목동점 주차장",
    "geocoded": true,
    "approximate": false,
    "source": "naver_local"
  },
  {
    "storeName": "LG베스트샵 문래점",
    "region": "서울 영등포구",
    "category": "LG베스트샵",
    "latitude": 37.5182901,
    "longitude": 126.894481,
    "address": "서울특별시 영등포구 문래동3가 67",
    "roadAddress": "서울특별시 영등포구 당산로 37",
    "matchedName": "LG전자 베스트샵 문래점",
    "geocoded": true,
    "approximate": false,
    "source": "naver_local"
  },
  {
    "storeName": "LG베스트샵 미아사거리점",
    "region": "서울 성북구",
    "category": "LG베스트샵",
    "latitude": 37.608486,
    "longitude": 127.0300089,
    "address": "서울특별시 성북구 하월곡동 196",
    "roadAddress": "서울특별시 성북구 동소문로 324",
    "matchedName": "LG전자 베스트샵 미아사거리점",
    "geocoded": true,
    "approximate": false,
    "source": "naver_local"
  },
  {
    "storeName": "LG베스트샵 반포점",
    "region": "서울 서초구",
    "category": "LG베스트샵",
    "latitude": 37.5057669,
    "longitude": 127.0025202,
    "address": "서울특별시 서초구 잠원동 75-13",
    "roadAddress": "서울특별시 서초구 신반포로 165",
    "matchedName": "LG전자 베스트샵 반포점",
    "geocoded": true,
    "approximate": false,
    "source": "naver_local"
  },
  {
    "storeName": "LG베스트샵 봉천점",
    "region": "서울특별시 관악구",
    "category": "LG베스트샵",
    "latitude": 37.4825362,
    "longitude": 126.9466818,
    "address": "서울특별시 관악구 봉천동 893-21",
    "roadAddress": "서울특별시 관악구 양녕로 6",
    "matchedName": "LG전자 베스트샵 봉천센트럴점",
    "geocoded": true,
    "approximate": false,
    "source": "naver_local"
  },
  {
    "storeName": "LG베스트샵 불광본점",
    "region": "서울특별시 은평구",
    "category": "LG베스트샵",
    "latitude": 37.611531,
    "longitude": 126.9302562,
    "address": "서울특별시 은평구 불광동 275-1",
    "roadAddress": "서울특별시 은평구 불광로 41",
    "matchedName": "LG전자 베스트샵 불광본점",
    "geocoded": true,
    "approximate": false,
    "source": "naver_local"
  },
  {
    "storeName": "LG베스트샵 상계점",
    "region": "서울 노원구",
    "category": "LG베스트샵",
    "latitude": 37.6710594,
    "longitude": 127.0558153,
    "address": "서울특별시 노원구 상계동 1034-4",
    "roadAddress": "서울특별시 노원구 동일로 1597",
    "matchedName": "LG전자 베스트샵 상계점",
    "geocoded": true,
    "approximate": false,
    "source": "naver_local"
  },
  {
    "storeName": "LG베스트샵 상도점",
    "region": "서울특별시 동작구",
    "category": "LG베스트샵",
    "latitude": 37.50425,
    "longitude": 126.9464554,
    "address": "서울특별시 동작구 상도동 33-1",
    "roadAddress": "서울특별시 동작구 상도로 254",
    "matchedName": "LG전자 베스트샵 상도점",
    "geocoded": true,
    "approximate": false,
    "source": "naver_local"
  },
  {
    "storeName": "LG베스트샵 서울양평점",
    "region": "서울 영등포구",
    "category": "LG베스트샵",
    "latitude": 37.5293397,
    "longitude": 126.8922263,
    "address": "서울특별시 영등포구 양평동3가 70-1",
    "roadAddress": "서울특별시 영등포구 선유로 173",
    "matchedName": "LG전자 베스트샵 서울양평220점",
    "geocoded": true,
    "approximate": false,
    "source": "naver_local"
  },
  {
    "storeName": "LG베스트샵 서초본점",
    "region": "서울특별시 서초구",
    "category": "LG베스트샵",
    "latitude": 37.4835,
    "longitude": 127.01133,
    "address": "서울특별시 서초구 서초동 1460-10 성진개발빌딩",
    "roadAddress": "서울특별시 서초구 반포대로 33 성진개발빌딩",
    "matchedName": "나이스파크 LG베스트샵 서초본점 주차장",
    "geocoded": true,
    "approximate": false,
    "source": "naver_local"
  },
  {
    "storeName": "LG베스트샵 송파점",
    "region": "서울특별시 송파구",
    "category": "LG베스트샵",
    "latitude": 37.508797,
    "longitude": 127.104429,
    "address": "서울특별시 송파구 송파동 7",
    "roadAddress": "서울특별시 송파구 송파대로 476",
    "matchedName": "LG전자 베스트샵 송파점",
    "geocoded": true,
    "approximate": false,
    "source": "naver_local"
  },
  {
    "storeName": "LG베스트샵 쌍문본점",
    "region": "서울시 도봉구",
    "category": "LG베스트샵",
    "latitude": 37.65484,
    "longitude": 127.037994,
    "address": "서울특별시 도봉구 쌍문동 692 하이프라자",
    "roadAddress": "서울특별시 도봉구 도봉로 555 쌍문동 하이프라자",
    "matchedName": "나이스파크 LG베스트샵 쌍문본점 주차장",
    "geocoded": true,
    "approximate": false,
    "source": "naver_local"
  },
  {
    "storeName": "LG베스트샵 양천본점",
    "region": "서울특별시 양천구",
    "category": "LG베스트샵",
    "latitude": 37.5213919,
    "longitude": 126.8575282,
    "address": "서울특별시 양천구 신정동 1027-4",
    "roadAddress": "서울특별시 양천구 신월로 328",
    "matchedName": "LG전자 베스트샵 양천본점",
    "geocoded": true,
    "approximate": false,
    "source": "naver_local"
  },
  {
    "storeName": "LG베스트샵 역촌점",
    "region": "서울특별시 은평구",
    "category": "LG베스트샵",
    "latitude": 37.6012645,
    "longitude": 126.924579,
    "address": "서울특별시 은평구 응암동 86-25",
    "roadAddress": "서울특별시 은평구 은평로 153",
    "matchedName": "나이스파크 LG베스트샵 은평점 주차장",
    "geocoded": true,
    "approximate": false,
    "source": "naver_local"
  },
  {
    "storeName": "LG베스트샵 염리점",
    "region": "서울 마포구",
    "category": "LG베스트샵",
    "latitude": 37.54624,
    "longitude": 126.9451619,
    "address": "서울특별시 마포구 염리동 156-1",
    "roadAddress": "서울특별시 마포구 백범로 130",
    "matchedName": "LG전자 베스트샵 염리점",
    "geocoded": true,
    "approximate": false,
    "source": "naver_local"
  },
  {
    "storeName": "LG베스트샵 용두점",
    "region": "서울 동대문구",
    "category": "LG베스트샵",
    "latitude": 37.5754281,
    "longitude": 127.0384452,
    "address": "서울특별시 동대문구 용두동 29-6",
    "roadAddress": "서울특별시 동대문구 고산자로 402",
    "matchedName": "LG전자 베스트샵 용두점",
    "geocoded": true,
    "approximate": false,
    "source": "naver_local"
  },
  {
    "storeName": "LG베스트샵 은평점",
    "region": "서울특별시 은평구",
    "category": "LG베스트샵",
    "latitude": 37.6012645,
    "longitude": 126.924579,
    "address": "서울특별시 은평구 응암동 86-25",
    "roadAddress": "서울특별시 은평구 은평로 153",
    "matchedName": "나이스파크 LG베스트샵 은평점 주차장",
    "geocoded": true,
    "approximate": false,
    "source": "naver_local"
  },
  {
    "storeName": "LG베스트샵 이수역점",
    "region": "서울시 동작구",
    "category": "LG베스트샵",
    "latitude": 37.4845303,
    "longitude": 126.9817516,
    "address": "서울특별시 동작구 사당동 147-53 골든시네마 타워 2층",
    "roadAddress": "서울특별시 동작구 동작대로 89 골든시네마 타워 2층",
    "matchedName": "LG전자 베스트샵 이수점",
    "geocoded": true,
    "approximate": false,
    "source": "naver_local"
  },
  {
    "storeName": "LG베스트샵 중랑점",
    "region": "서울특별시 중랑구",
    "category": "LG베스트샵",
    "latitude": 37.5996583,
    "longitude": 127.1006315,
    "address": "서울특별시 중랑구 망우동 359-2",
    "roadAddress": "서울특별시 중랑구 망우로 436",
    "matchedName": "LG전자 베스트샵 중랑점",
    "geocoded": true,
    "approximate": false,
    "source": "naver_local"
  },
  {
    "storeName": "LH강남8단지",
    "region": "서울특별시 강남구",
    "category": "공동주택(아파트 등)",
    "latitude": 37.4725434,
    "longitude": 127.1008175,
    "address": "서울특별시 강남구 자곡동 646",
    "roadAddress": "서울특별시 강남구 자곡로 154",
    "matchedName": "LH강남8단지 폐가전수거함",
    "geocoded": true,
    "approximate": false,
    "source": "naver_local"
  },
  {
    "storeName": "LH삼성도시형생활주택",
    "region": "서울특별시 강남구",
    "category": "공동주택(아파트 등)",
    "latitude": 37.515515,
    "longitude": 127.0640228,
    "address": "서울특별시 강남구 삼성동 109-21",
    "roadAddress": "서울특별시 강남구 영동대로112길 46",
    "matchedName": "LH삼성도시형생활주택 폐가전수거함",
    "geocoded": true,
    "approximate": false,
    "source": "naver_local"
  },
  {
    "storeName": "가람아파트",
    "region": "서울 강남구",
    "category": "공동주택(아파트 등)",
    "latitude": 37.4825117,
    "longitude": 127.0852629,
    "address": "서울특별시 강남구 일원동 735",
    "roadAddress": "서울특별시 강남구 일원로 127",
    "matchedName": "일원가람아파트",
    "geocoded": true,
    "approximate": false,
    "source": "naver_local"
  },
  {
    "storeName": "가양7단지 아파트",
    "region": "서울특별시 강서구",
    "category": "공동주택(아파트 등)",
    "latitude": 37.5621998,
    "longitude": 126.8616634,
    "address": "서울특별시 강서구 가양동 1486",
    "roadAddress": "서울특별시 강서구 허준로 209",
    "matchedName": "가양7단지아파트",
    "geocoded": true,
    "approximate": false,
    "source": "naver_local"
  },
  {
    "storeName": "강남LH 1단지 이편한세상",
    "region": "서울 강남구",
    "category": "공동주택(아파트 등)",
    "latitude": 37.4668115,
    "longitude": 127.1028005,
    "address": "서울특별시 강남구 세곡동 579",
    "roadAddress": "서울특별시 강남구 헌릉로571길 20",
    "matchedName": "강남LH1단지이편한세상아파트",
    "geocoded": true,
    "approximate": false,
    "source": "naver_local"
  },
  {
    "storeName": "강남자곡아이파크",
    "region": "서울 강남구",
    "category": "공동주택(아파트 등)",
    "latitude": 37.4746308,
    "longitude": 127.1015943,
    "address": "서울특별시 강남구 자곡동 602",
    "roadAddress": "서울특별시 강남구 자곡로 175",
    "matchedName": "강남자곡아이파크",
    "geocoded": true,
    "approximate": false,
    "source": "naver_local"
  },
  {
    "storeName": "개포더샵트리에",
    "region": "서울 강남구",
    "category": "공동주택(아파트 등)",
    "latitude": 37.484896,
    "longitude": 127.057228,
    "address": "서울특별시 강남구 개포동 651-1 개포 더샵 트리에",
    "roadAddress": "서울특별시 강남구 개포로 311 개포 더샵 트리에",
    "matchedName": "개포더샵트리에",
    "geocoded": true,
    "approximate": false,
    "source": "naver_local"
  },
  {
    "storeName": "개포주공7단지아파트",
    "region": "서울 강남구",
    "category": "공동주택(아파트 등)",
    "latitude": 37.489486,
    "longitude": 127.0724108,
    "address": "서울특별시 강남구 개포동 185",
    "roadAddress": "서울특별시 강남구 개포로 516",
    "matchedName": "개포주공7단지아파트",
    "geocoded": true,
    "approximate": false,
    "source": "naver_local"
  },
  {
    "storeName": "고덕그라시움아파트",
    "region": "서울 강동구",
    "category": "공동주택(아파트 등)",
    "latitude": 37.5575731,
    "longitude": 127.1634065,
    "address": "서울특별시 강동구 고덕동 693",
    "roadAddress": "서울특별시 강동구 고덕로 333",
    "matchedName": "고덕그라시움아파트 폐가전수거함",
    "geocoded": true,
    "approximate": false,
    "source": "naver_local"
  },
  {
    "storeName": "농인종합사회복지관",
    "region": "서울특별시 강남구",
    "category": "공동주택(아파트 등)",
    "latitude": 37.4716779,
    "longitude": 127.0525917,
    "address": "서울특별시 강남구 개포동 1055",
    "roadAddress": "서울특별시 강남구 양재대로 340",
    "matchedName": "농인종합사회복지관 폐가전수거함",
    "geocoded": true,
    "approximate": false,
    "source": "naver_local"
  },
  {
    "storeName": "대치SK VIEW 아파트",
    "region": "서울 강남구",
    "category": "공동주택(아파트 등)",
    "latitude": 37.4959663,
    "longitude": 127.0603231,
    "address": "서울특별시 강남구 대치동 1029",
    "roadAddress": "서울특별시 강남구 삼성로51길 25",
    "matchedName": "대치SK VIEW 아파트 폐가전수거함",
    "geocoded": true,
    "approximate": false,
    "source": "naver_local"
  },
  {
    "storeName": "도곡렉슬아파트",
    "region": "서울 강남구",
    "category": "공동주택(아파트 등)",
    "latitude": 37.4938546,
    "longitude": 127.0509144,
    "address": "서울특별시 강남구 도곡동 527",
    "roadAddress": "서울특별시 강남구 선릉로 221",
    "matchedName": "도곡렉슬아파트",
    "geocoded": true,
    "approximate": false,
    "source": "naver_local"
  },
  {
    "storeName": "독산역롯데캐슬아파트",
    "region": "서울특별시 금천구",
    "category": "공동주택(아파트 등)",
    "latitude": 37.4643082,
    "longitude": 126.8913917,
    "address": "서울특별시 금천구 독산동 1160",
    "roadAddress": "서울특별시 금천구 벚꽃로 100",
    "matchedName": "독산역롯데캐슬아파트 폐가전수거함",
    "geocoded": true,
    "approximate": false,
    "source": "naver_local"
  },
  {
    "storeName": "등촌11단지아파트",
    "region": "서울특별시 강서구",
    "category": "공동주택(아파트 등)",
    "latitude": 37.5591472,
    "longitude": 126.849202,
    "address": "서울특별시 강서구 등촌동 705-6 등촌주공아파트11단지 등촌11단지아파트경로당",
    "roadAddress": "서울특별시 강서구 공항대로43길 39 (등촌동, 등촌주공아파트11단지) 등촌11단지아파트경로당",
    "matchedName": "등촌11단지아파트경로당 무더위쉼터",
    "geocoded": true,
    "approximate": false,
    "source": "naver_local"
  },
  {
    "storeName": "등촌4단지아파트",
    "region": "서울특별시 강서구",
    "category": "공동주택(아파트 등)",
    "latitude": 37.5621004,
    "longitude": 126.8430031,
    "address": "서울특별시 강서구 등촌동 690",
    "roadAddress": "서울특별시 강서구 공항대로39길 59",
    "matchedName": "등촌4단지아파트 폐가전수거함",
    "geocoded": true,
    "approximate": false,
    "source": "naver_local"
  },
  {
    "storeName": "등촌6단지아파트",
    "region": "서울특별시 강서구",
    "category": "공동주택(아파트 등)",
    "latitude": 37.5594739,
    "longitude": 126.8484235,
    "address": "서울특별시 강서구 등촌동 705",
    "roadAddress": "서울특별시 강서구 화곡로63가길 18",
    "matchedName": "등촌6단지아파트 폐가전수거함",
    "geocoded": true,
    "approximate": false,
    "source": "naver_local"
  },
  {
    "storeName": "등촌7단지아파트",
    "region": "서울특별시 강서구",
    "category": "공동주택(아파트 등)",
    "latitude": 37.5605474,
    "longitude": 126.851713,
    "address": "서울특별시 강서구 등촌동 707 등촌주공7,8단지아파트 등촌7단지아파트경로당",
    "roadAddress": "서울특별시 강서구 공항대로43길 104 (등촌동, 등촌주공7,8단지아파트) 등촌7단지아파트경로당",
    "matchedName": "등촌7단지아파트경로당 무더위쉼터",
    "geocoded": true,
    "approximate": false,
    "source": "naver_local"
  },
  {
    "storeName": "등촌9단지아파트",
    "region": "서울특별시 강서구",
    "category": "공동주택(아파트 등)",
    "latitude": 37.5616595,
    "longitude": 126.849539,
    "address": "서울특별시 강서구 등촌동 704",
    "roadAddress": "서울특별시 강서구 화곡로63가길 92",
    "matchedName": "등촌9단지아파트 폐가전수거함",
    "geocoded": true,
    "approximate": false,
    "source": "naver_local"
  },
  {
    "storeName": "디에이치자이개포",
    "region": "서울 강남구",
    "category": "공동주택(아파트 등)",
    "latitude": 37.4911871,
    "longitude": 127.0752033,
    "address": "서울특별시 강남구 일원동 743",
    "roadAddress": "서울특별시 강남구 영동대로 22",
    "matchedName": "디에이치자이개포",
    "geocoded": true,
    "approximate": false,
    "source": "naver_local"
  },
  {
    "storeName": "디에이치포레센트",
    "region": "서울 강남구",
    "category": "공동주택(아파트 등)",
    "latitude": 37.4898522,
    "longitude": 127.0783503,
    "address": "서울특별시 강남구 일원동 742",
    "roadAddress": "서울특별시 강남구 개포로110길 38",
    "matchedName": "디에이치포레센트",
    "geocoded": true,
    "approximate": false,
    "source": "naver_local"
  },
  {
    "storeName": "래미안개포루체하임",
    "region": "서울 강남구",
    "category": "공동주택(아파트 등)",
    "latitude": 37.4893773,
    "longitude": 127.0799389,
    "address": "서울특별시 강남구 일원동 741 래미안 루체하임",
    "roadAddress": "서울특별시 강남구 개포로110길 50 래미안 루체하임",
    "matchedName": "래미안개포루체하임아파트",
    "geocoded": true,
    "approximate": false,
    "source": "naver_local"
  },
  {
    "storeName": "래미안목동아델리체아파트",
    "region": "서울 양천구",
    "category": "공동주택(아파트 등)",
    "latitude": 37.5186675,
    "longitude": 126.8519475,
    "address": "서울특별시 양천구 신정동 1326",
    "roadAddress": "서울특별시 양천구 중앙로43길 14",
    "matchedName": "래미안목동아델리체아파트 폐가전수거함",
    "geocoded": true,
    "approximate": false,
    "source": "naver_local"
  },
  {
    "storeName": "롯데하이마트 VIC마켓영등포점",
    "region": "서울 영등포구",
    "category": "롯데하이마트",
    "latitude": 37.5278091,
    "longitude": 126.9046989,
    "address": "서울특별시 영등포구 영등포동8가 62-1",
    "roadAddress": "서울특별시 영등포구 영중로 125",
    "matchedName": "ASUS공인서비스 롯데하이마트 VIC마켓영등포점",
    "geocoded": true,
    "approximate": false,
    "source": "naver_local"
  },
  {
    "storeName": "롯데하이마트 가락점",
    "region": "서울 송파구",
    "category": "롯데하이마트",
    "latitude": 37.5013747,
    "longitude": 127.1280096,
    "address": "서울특별시 송파구 가락동 160-5 하이마트",
    "roadAddress": "서울특별시 송파구 중대로 222 하이마트",
    "matchedName": "롯데하이마트 가락점",
    "geocoded": true,
    "approximate": false,
    "source": "naver_local"
  },
  {
    "storeName": "롯데하이마트 개봉점",
    "region": "서울 구로구",
    "category": "롯데하이마트",
    "latitude": 37.497133,
    "longitude": 126.8574109,
    "address": "서울특별시 구로구 개봉동 161-4 롯데하이마트 개봉점",
    "roadAddress": "서울특별시 구로구 경인로 334 롯데하이마트 개봉점",
    "matchedName": "롯데하이마트 개봉점",
    "geocoded": true,
    "approximate": false,
    "source": "naver_local"
  },
  {
    "storeName": "롯데하이마트 건대입구점",
    "region": "서울 광진구",
    "category": "롯데하이마트",
    "latitude": 37.5378861,
    "longitude": 127.076046,
    "address": "서울특별시 광진구 자양동 227-3 1층 롯데하이마트 건대입구점",
    "roadAddress": "서울특별시 광진구 아차산로 300 1층 롯데하이마트 건대입구점",
    "matchedName": "롯데하이마트 건대입구점",
    "geocoded": true,
    "approximate": false,
    "source": "naver_local"
  },
  {
    "storeName": "롯데하이마트 공릉점",
    "region": "서울 노원구",
    "category": "롯데하이마트",
    "latitude": 37.6271341,
    "longitude": 127.0725884,
    "address": "서울특별시 노원구 공릉동 375-16 롯데하이마트 공릉점",
    "roadAddress": "서울특별시 노원구 동일로 1090 롯데하이마트 공릉점",
    "matchedName": "롯데하이마트 공릉점",
    "geocoded": true,
    "approximate": false,
    "source": "naver_local"
  },
  {
    "storeName": "롯데하이마트 구로점",
    "region": "서울 구로구",
    "category": "롯데하이마트",
    "latitude": 37.496568,
    "longitude": 126.8907694,
    "address": "서울특별시 구로구 구로동 104-11 하이마트 구로점",
    "roadAddress": "서울특별시 구로구 가마산로 277 하이마트 구로점",
    "matchedName": "롯데하이마트 구로점",
    "geocoded": true,
    "approximate": false,
    "source": "naver_local"
  },
  {
    "storeName": "롯데하이마트 금천점",
    "region": "서울 금천구",
    "category": "롯데하이마트",
    "latitude": 37.4622646,
    "longitude": 126.8980946,
    "address": "서울특별시 금천구 독산동 1055-21 롯데하이마트 금천점",
    "roadAddress": "서울특별시 금천구 시흥대로 322 롯데하이마트 금천점",
    "matchedName": "롯데하이마트 금천점",
    "geocoded": true,
    "approximate": false,
    "source": "naver_local"
  },
  {
    "storeName": "롯데하이마트 김포공항롯데마트점",
    "region": "서울 강서구",
    "category": "롯데하이마트",
    "latitude": 37.5631888,
    "longitude": 126.8034109,
    "address": "서울특별시 강서구 방화동 882-1 롯데몰 MF층",
    "roadAddress": "서울특별시 강서구 하늘길 38 롯데몰 MF층",
    "matchedName": "롯데하이마트 김포공항롯데마트점",
    "geocoded": true,
    "approximate": false,
    "source": "naver_local"
  },
  {
    "storeName": "롯데하이마트 대치점",
    "region": "서울 강남구",
    "category": "롯데하이마트",
    "latitude": 37.4943294,
    "longitude": 127.0636913,
    "address": "서울특별시 강남구 대치동 509 주하이마트사옥",
    "roadAddress": "서울특별시 강남구 삼성로 156 (주)하이마트사옥",
    "matchedName": "애플 롯데하이마트대치점",
    "geocoded": true,
    "approximate": false,
    "source": "naver_local"
  },
  {
    "storeName": "롯데하이마트 미아사거리점",
    "region": "서울 강북구",
    "category": "롯데하이마트",
    "latitude": 37.609949,
    "longitude": 127.0307143,
    "address": "서울특별시 강북구 미아동 42-56 롯데하이마트 미아사거리점",
    "roadAddress": "서울특별시 강북구 도봉로 10 롯데하이마트 미아사거리점",
    "matchedName": "롯데하이마트 미아사거리점",
    "geocoded": true,
    "approximate": false,
    "source": "naver_local"
  },
  {
    "storeName": "롯데하이마트 발산점",
    "region": "서울 강서구",
    "category": "롯데하이마트",
    "latitude": 37.5586148,
    "longitude": 126.8407168,
    "address": "서울특별시 강서구 등촌동 672-1",
    "roadAddress": "서울특별시 강서구 공항대로 297",
    "matchedName": "ASUS공인서비스 롯데하이마트 발산점",
    "geocoded": true,
    "approximate": false,
    "source": "naver_local"
  },
  {
    "storeName": "롯데하이마트 봉천점",
    "region": "서울 관악구",
    "category": "롯데하이마트",
    "latitude": 37.481509,
    "longitude": 126.9478886,
    "address": "서울특별시 관악구 봉천동 883-12 롯데하이마트 봉천점",
    "roadAddress": "서울특별시 관악구 남부순환로 1780 롯데하이마트 봉천점",
    "matchedName": "롯데하이마트 봉천점",
    "geocoded": true,
    "approximate": false,
    "source": "naver_local"
  },
  {
    "storeName": "롯데하이마트 삼선교점",
    "region": "서울 성북구",
    "category": "롯데하이마트",
    "latitude": 37.5911659,
    "longitude": 127.0124799,
    "address": "서울특별시 성북구 동소문동3가 76",
    "roadAddress": "서울특별시 성북구 동소문로 62",
    "matchedName": "롯데하이마트 삼선교점",
    "geocoded": true,
    "approximate": false,
    "source": "naver_local"
  },
  {
    "storeName": "롯데하이마트 상계점",
    "region": "서울 노원구",
    "category": "롯데하이마트",
    "latitude": 37.674926,
    "longitude": 127.0548805,
    "address": "서울특별시 노원구 상계동 1049-4",
    "roadAddress": "서울특별시 노원구 동일로 1641",
    "matchedName": "롯데하이마트 상계점",
    "geocoded": true,
    "approximate": false,
    "source": "naver_local"
  },
  {
    "storeName": "롯데하이마트 상도점",
    "region": "서울 동작구",
    "category": "롯데하이마트",
    "latitude": 37.5054429,
    "longitude": 126.9452639,
    "address": "서울특별시 동작구 상도동 22-42",
    "roadAddress": "서울특별시 동작구 상도로 237",
    "matchedName": "롯데하이마트 상도점",
    "geocoded": true,
    "approximate": false,
    "source": "naver_local"
  },
  {
    "storeName": "롯데하이마트 상봉점",
    "region": "서울 중랑구",
    "category": "롯데하이마트",
    "latitude": 37.5992832,
    "longitude": 127.0965839,
    "address": "서울특별시 중랑구 망우동 489-26 하이마트",
    "roadAddress": "서울특별시 중랑구 망우로 399 하이마트",
    "matchedName": "롯데하이마트 상봉점",
    "geocoded": true,
    "approximate": false,
    "source": "naver_local"
  },
  {
    "storeName": "롯데하이마트 서울역롯데마트점",
    "region": "서울 중구",
    "category": "롯데하이마트",
    "latitude": 37.555587,
    "longitude": 126.9706867,
    "address": "서울특별시 중구 봉래동2가 122-11 롯데마트 3층",
    "roadAddress": "서울특별시 중구 한강대로 405 롯데마트 3층",
    "matchedName": "롯데하이마트 서울역롯데마트점",
    "geocoded": true,
    "approximate": false,
    "source": "naver_local"
  },
  {
    "storeName": "롯데하이마트 석관점",
    "region": "서울 성북구",
    "category": "롯데하이마트",
    "latitude": 37.6107499,
    "longitude": 127.0625529,
    "address": "서울특별시 성북구 석관동 183-1 롯데하이마트 석관점",
    "roadAddress": "서울특별시 성북구 한천로 573 롯데하이마트 석관점",
    "matchedName": "롯데하이마트 석관점",
    "geocoded": true,
    "approximate": false,
    "source": "naver_local"
  },
  {
    "storeName": "롯데하이마트 송파롯데마트점",
    "region": "서울 송파구",
    "category": "롯데하이마트",
    "latitude": 37.4918222,
    "longitude": 127.1171965,
    "address": "서울특별시 송파구 문정동 150-2 롯데마트송파점 B1",
    "roadAddress": "서울특별시 송파구 중대로 80 롯데마트송파점 B1",
    "matchedName": "롯데하이마트 송파롯데마트점",
    "geocoded": true,
    "approximate": false,
    "source": "naver_local"
  },
  {
    "storeName": "롯데하이마트 신길점",
    "region": "서울 영등포구",
    "category": "롯데하이마트",
    "latitude": 37.505076,
    "longitude": 126.91037,
    "address": "서울특별시 영등포구 신길동 252-6",
    "roadAddress": "서울특별시 영등포구 신길로 141",
    "matchedName": "롯데하이마트 신길점",
    "geocoded": true,
    "approximate": false,
    "source": "naver_local"
  },
  {
    "storeName": "롯데하이마트 쌍문점",
    "region": "서울 도봉구",
    "category": "롯데하이마트",
    "latitude": 37.6533884,
    "longitude": 127.0371837,
    "address": "서울특별시 도봉구 쌍문동 701-1 롯데하이마트쌍문점",
    "roadAddress": "서울특별시 도봉구 도봉로 539 롯데하이마트쌍문점",
    "matchedName": "롯데하이마트 쌍문점",
    "geocoded": true,
    "approximate": false,
    "source": "naver_local"
  },
  {
    "storeName": "롯데하이마트 압구정점",
    "region": "서울 강남구",
    "category": "롯데하이마트",
    "latitude": 37.5199388,
    "longitude": 127.0275166,
    "address": "서울특별시 강남구 신사동 563-33 하이마트 2층",
    "roadAddress": "서울특별시 강남구 도산대로 173 하이마트 2층",
    "matchedName": "ASUS공인서비스 롯데하이마트 압구정점",
    "geocoded": true,
    "approximate": false,
    "source": "naver_local"
  },
  {
    "storeName": "롯데하이마트 용두점",
    "region": "서울 동대문구",
    "category": "롯데하이마트",
    "latitude": 37.57649,
    "longitude": 127.0386311,
    "address": "서울특별시 동대문구 용두동 27-3 하이마트 용두점",
    "roadAddress": "서울특별시 동대문구 고산자로 414 하이마트 용두점",
    "matchedName": "롯데하이마트 용두점",
    "geocoded": true,
    "approximate": false,
    "source": "naver_local"
  },
  {
    "storeName": "롯데하이마트 용산아이파크몰점",
    "region": "서울 용산구",
    "category": "롯데하이마트",
    "latitude": 37.5297718,
    "longitude": 126.9647415,
    "address": "서울특별시 용산구 한강로3가 40-999 아이파크몰 리빙파크 4층 롯데하이마트 용산아이파크몰점",
    "roadAddress": "서울특별시 용산구 한강대로23길 55 아이파크몰 리빙파크 4층 롯데하이마트 용산아이파크몰점",
    "matchedName": "롯데하이마트 용산아이파크몰점",
    "geocoded": true,
    "approximate": false,
    "source": "naver_local"
  },
  {
    "storeName": "롯데하이마트 월드타워점",
    "region": "서울 송파구",
    "category": "롯데하이마트",
    "latitude": 37.5139178,
    "longitude": 127.104785,
    "address": "서울특별시 송파구 신천동 29 롯데월드몰 3층",
    "roadAddress": "서울특별시 송파구 올림픽로 300 롯데월드몰 3층",
    "matchedName": "롯데하이마트 월드타워점",
    "geocoded": true,
    "approximate": false,
    "source": "naver_local"
  },
  {
    "storeName": "롯데하이마트 은평롯데몰점",
    "region": "서울 은평구",
    "category": "롯데하이마트",
    "latitude": 37.6378657,
    "longitude": 126.9180859,
    "address": "서울특별시 은평구 진관동 63 2층",
    "roadAddress": "서울특별시 은평구 통일로 1050 2층",
    "matchedName": "롯데하이마트 은평롯데몰점",
    "geocoded": true,
    "approximate": false,
    "source": "naver_local"
  },
  {
    "storeName": "롯데하이마트 은평점",
    "region": "서울 은평구",
    "category": "롯데하이마트",
    "latitude": 37.6006633,
    "longitude": 126.9241007,
    "address": "서울특별시 은평구 응암동 98-36 롯데하이마트 은평점",
    "roadAddress": "서울특별시 은평구 은평로 148 롯데하이마트 은평점",
    "matchedName": "롯데하이마트 은평점",
    "geocoded": true,
    "approximate": false,
    "source": "naver_local"
  },
  {
    "storeName": "롯데하이마트 잠실점",
    "region": "서울 송파구",
    "category": "롯데하이마트",
    "latitude": 37.511758,
    "longitude": 127.0971549,
    "address": "서울특별시 송파구 잠실동 40-1",
    "roadAddress": "서울특별시 송파구 올림픽로 240",
    "matchedName": "롯데하이마트 잠실점",
    "geocoded": true,
    "approximate": false,
    "source": "naver_local"
  },
  {
    "storeName": "롯데하이마트 장한평점",
    "region": "서울 성동구",
    "category": "롯데하이마트",
    "latitude": 37.5640618,
    "longitude": 127.0555515,
    "address": "서울특별시 성동구 용답동",
    "roadAddress": "",
    "matchedName": "롯데하이마트장한평점",
    "geocoded": true,
    "approximate": false,
    "source": "naver_local"
  },
  {
    "storeName": "롯데하이마트 중계롯데마트점",
    "region": "서울 노원구",
    "category": "롯데하이마트",
    "latitude": 37.646872,
    "longitude": 127.0706585,
    "address": "서울특별시 노원구 중계동 361 롯데마트중계점 2F",
    "roadAddress": "서울특별시 노원구 노원로 330 롯데마트중계점 2F",
    "matchedName": "롯데하이마트 중계롯데마트점",
    "geocoded": true,
    "approximate": false,
    "source": "naver_local"
  },
  {
    "storeName": "롯데하이마트 창동점",
    "region": "서울 도봉구",
    "category": "롯데하이마트",
    "latitude": 37.652869,
    "longitude": 127.0520868,
    "address": "서울특별시 도봉구 창동 16-3 롯데하이마트 점",
    "roadAddress": "서울특별시 도봉구 노해로 397 롯데하이마트 창동점",
    "matchedName": "롯데하이마트 창동점",
    "geocoded": true,
    "approximate": false,
    "source": "naver_local"
  },
  {
    "storeName": "롯데하이마트 천호역점",
    "region": "서울 송파구",
    "category": "롯데하이마트",
    "latitude": 37.5371599,
    "longitude": 127.1225559,
    "address": "서울특별시 송파구 풍납동 474-2 하이마트 천호역점",
    "roadAddress": "서울특별시 송파구 올림픽로 619 하이마트 천호역점",
    "matchedName": "롯데하이마트 천호역점",
    "geocoded": true,
    "approximate": false,
    "source": "naver_local"
  },
  {
    "storeName": "롯데하이마트 청구점",
    "region": "서울 중구",
    "category": "롯데하이마트",
    "latitude": 37.5619676,
    "longitude": 127.0150495,
    "address": "서울특별시 중구 신당동 292-56 1층",
    "roadAddress": "서울특별시 중구 다산로 210 1층",
    "matchedName": "롯데하이마트 청구점",
    "geocoded": true,
    "approximate": false,
    "source": "naver_local"
  },
  {
    "storeName": "롯데하이마트 청량리롯데마트점",
    "region": "서울 동대문구",
    "category": "롯데하이마트",
    "latitude": 37.5806551,
    "longitude": 127.0488919,
    "address": "서울특별시 동대문구 전농동 591-92 롯데마트 6층",
    "roadAddress": "서울특별시 동대문구 왕산로 214 롯데마트 6층",
    "matchedName": "롯데하이마트 청량리롯데마트점",
    "geocoded": true,
    "approximate": false,
    "source": "naver_local"
  },
  {
    "storeName": "롯데하이마트 화곡점",
    "region": "서울 양천구",
    "category": "롯데하이마트",
    "latitude": 37.5398895,
    "longitude": 126.8329477,
    "address": "서울특별시 양천구 신월동 23-5 롯데하이마트 화곡점",
    "roadAddress": "서울특별시 양천구 화곡로 99 롯데하이마트 화곡점",
    "matchedName": "롯데하이마트 화곡점",
    "geocoded": true,
    "approximate": false,
    "source": "naver_local"
  },
  {
    "storeName": "번동3단지 아파트",
    "region": "서울특별시 강북구",
    "category": "공동주택(아파트 등)",
    "latitude": 37.6301501,
    "longitude": 127.0414256,
    "address": "서울특별시 강북구 번동 237",
    "roadAddress": "서울특별시 강북구 오현로 208",
    "matchedName": "번동3단지 아파트 폐가전수거함",
    "geocoded": true,
    "approximate": false,
    "source": "naver_local"
  },
  {
    "storeName": "삼성스토어 강동",
    "region": "서울특별시 강동구",
    "category": "삼성디지털프라자",
    "latitude": 37.5367454,
    "longitude": 127.1283848,
    "address": "서울특별시 강동구 성내동 611 그란츠 리버파크 101동 1층",
    "roadAddress": "서울특별시 강동구 천호대로 1050 그란츠 리버파크 101동 1층",
    "matchedName": "삼성스토어 강동",
    "geocoded": true,
    "approximate": false,
    "source": "naver_local"
  },
  {
    "storeName": "삼성스토어 강서",
    "region": "서울특별시 강서구",
    "category": "삼성디지털프라자",
    "latitude": 37.549179,
    "longitude": 126.8690559,
    "address": "서울특별시 강서구 염창동 277 삼성전자프라자",
    "roadAddress": "서울특별시 강서구 공항대로 571 삼성전자프라자",
    "matchedName": "삼성스토어 강서",
    "geocoded": true,
    "approximate": false,
    "source": "naver_local"
  },
  {
    "storeName": "삼성스토어 개봉",
    "region": "서울특별시 구로구",
    "category": "삼성디지털프라자",
    "latitude": 37.496462,
    "longitude": 126.860985,
    "address": "서울특별시 구로구 개봉동 179-8 삼성디지털플라자",
    "roadAddress": "서울특별시 구로구 경인로 368 삼성디지털플라자",
    "matchedName": "삼성스토어 개봉",
    "geocoded": true,
    "approximate": false,
    "source": "naver_local"
  },
  {
    "storeName": "삼성스토어 관악봉천",
    "region": "서울특별시 관악구",
    "category": "삼성디지털프라자",
    "latitude": 37.4828096,
    "longitude": 126.9415374,
    "address": "서울특별시 관악구 봉천동 931-5 삼성전자디지털센타",
    "roadAddress": "서울특별시 관악구 남부순환로 1719 삼성전자디지털센타",
    "matchedName": "삼성스토어 관악봉천",
    "geocoded": true,
    "approximate": false,
    "source": "naver_local"
  },
  {
    "storeName": "삼성스토어 광진",
    "region": "서울특별시 광진구",
    "category": "삼성디지털프라자",
    "latitude": 37.5524083,
    "longitude": 127.0773375,
    "address": "서울특별시 광진구 능동 315-18",
    "roadAddress": "서울특별시 광진구 능동로 252",
    "matchedName": "삼성스토어 광진",
    "geocoded": true,
    "approximate": false,
    "source": "naver_local"
  },
  {
    "storeName": "삼성스토어 금천",
    "region": "서울특별시 금천구",
    "category": "삼성디지털프라자",
    "latitude": 37.465734,
    "longitude": 126.897144,
    "address": "서울특별시 금천구 독산동 1008-2",
    "roadAddress": "서울특별시 금천구 시흥대로 357",
    "matchedName": "삼성스토어 금천",
    "geocoded": true,
    "approximate": false,
    "source": "naver_local"
  },
  {
    "storeName": "삼성스토어 노원",
    "region": "서울특별시 노원구",
    "category": "삼성디지털프라자",
    "latitude": 37.6745112,
    "longitude": 127.0549346,
    "address": "서울특별시 노원구 상계동 1049-36",
    "roadAddress": "서울특별시 노원구 동일로 1637",
    "matchedName": "삼성스토어 노원",
    "geocoded": true,
    "approximate": false,
    "source": "naver_local"
  },
  {
    "storeName": "삼성스토어 대치",
    "region": "서울시 강남구",
    "category": "삼성디지털프라자",
    "latitude": 37.5004651,
    "longitude": 127.0670641,
    "address": "서울특별시 강남구 대치동 993-1",
    "roadAddress": "서울특별시 강남구 영동대로 237",
    "matchedName": "삼성스토어 대치",
    "geocoded": true,
    "approximate": false,
    "source": "naver_local"
  },
  {
    "storeName": "삼성스토어 도곡",
    "region": "서울특별시 강남구",
    "category": "삼성디지털프라자",
    "latitude": 37.488534,
    "longitude": 127.0491832,
    "address": "서울특별시 강남구 도곡동 168 에스케이리더스뷰",
    "roadAddress": "서울특별시 강남구 언주로 201 에스케이리더스뷰",
    "matchedName": "삼성스토어 도곡",
    "geocoded": true,
    "approximate": false,
    "source": "naver_local"
  },
  {
    "storeName": "삼성스토어 도봉쌍문",
    "region": "서울특별시 도봉구",
    "category": "삼성디지털프라자",
    "latitude": 37.6555569,
    "longitude": 127.0384081,
    "address": "서울특별시 도봉구 쌍문동 659 삼성전자디지털센터",
    "roadAddress": "서울특별시 도봉구 도봉로 565 삼성전자디지털센터",
    "matchedName": "삼성스토어 도봉쌍문",
    "geocoded": true,
    "approximate": false,
    "source": "naver_local"
  },
  {
    "storeName": "삼성스토어 마곡",
    "region": "서울시 강서구",
    "category": "삼성디지털프라자",
    "latitude": 37.5611132,
    "longitude": 126.8158443,
    "address": "서울특별시 강서구 공항동 9-1",
    "roadAddress": "서울특별시 강서구 공항대로 73",
    "matchedName": "삼성스토어 마곡",
    "geocoded": true,
    "approximate": false,
    "source": "naver_local"
  },
  {
    "storeName": "삼성스토어 마포",
    "region": "서울시 마포구",
    "category": "삼성디지털프라자",
    "latitude": 37.5409841,
    "longitude": 126.9427552,
    "address": "서울특별시 마포구 용강동 108-1 삼성스토어 마포",
    "roadAddress": "서울특별시 마포구 토정로 299 삼성스토어 마포",
    "matchedName": "삼성스토어 마포",
    "geocoded": true,
    "approximate": false,
    "source": "naver_local"
  },
  {
    "storeName": "삼성스토어 문정",
    "region": "서울시 송파구",
    "category": "삼성디지털프라자",
    "latitude": 37.4842356,
    "longitude": 127.1227533,
    "address": "서울특별시 송파구 문정동 651-8 NH송파농협) 1층",
    "roadAddress": "서울특별시 송파구 송파대로 155 NH송파농협) 1층",
    "matchedName": "삼성스토어 문정",
    "geocoded": true,
    "approximate": false,
    "source": "naver_local"
  },
  {
    "storeName": "삼성스토어 미아",
    "region": "서울특별시 강북구",
    "category": "삼성디지털프라자",
    "latitude": 37.6196556,
    "longitude": 127.0292301,
    "address": "서울특별시 강북구 미아동 135-6",
    "roadAddress": "서울특별시 강북구 도봉로20가길 29",
    "matchedName": "삼성스토어 미아",
    "geocoded": true,
    "approximate": false,
    "source": "naver_local"
  },
  {
    "storeName": "삼성스토어 방배",
    "region": "서울특별시 서초구",
    "category": "삼성디지털프라자",
    "latitude": 37.4849652,
    "longitude": 126.9957893,
    "address": "서울특별시 서초구 방배동 905-1",
    "roadAddress": "서울특별시 서초구 방배로 120",
    "matchedName": "삼성스토어 방배",
    "geocoded": true,
    "approximate": false,
    "source": "naver_local"
  },
  {
    "storeName": "삼성스토어 상도",
    "region": "서울특별시 동작구",
    "category": "삼성디지털프라자",
    "latitude": 37.5053445,
    "longitude": 126.9454504,
    "address": "서울특별시 동작구 상도동 22-56",
    "roadAddress": "서울특별시 동작구 상도로 241",
    "matchedName": "삼성스토어 상도",
    "geocoded": true,
    "approximate": false,
    "source": "naver_local"
  },
  {
    "storeName": "삼성스토어 서초",
    "region": "서울특별시 서초구",
    "category": "삼성디지털프라자",
    "latitude": 37.4934056,
    "longitude": 127.0143021,
    "address": "서울특별시 서초구 서초동 1672-6",
    "roadAddress": "서울특별시 서초구 서초대로52길 12",
    "matchedName": "삼성스토어 서초",
    "geocoded": true,
    "approximate": false,
    "source": "naver_local"
  },
  {
    "storeName": "삼성스토어 송파",
    "region": "서울특별시 송파구",
    "category": "삼성디지털프라자",
    "latitude": 37.5071609,
    "longitude": 127.1175786,
    "address": "서울특별시 송파구 송파동 147-6 삼성스토어",
    "roadAddress": "서울특별시 송파구 오금로 218 삼성스토어",
    "matchedName": "삼성스토어 송파",
    "geocoded": true,
    "approximate": false,
    "source": "naver_local"
  },
  {
    "storeName": "삼성스토어 수색",
    "region": "서울특별시 은평구",
    "category": "삼성디지털프라자",
    "latitude": 37.5807667,
    "longitude": 126.8970874,
    "address": "서울특별시 은평구 수색동 72-1",
    "roadAddress": "서울특별시 은평구 수색로 245",
    "matchedName": "삼성스토어 수색",
    "geocoded": true,
    "approximate": false,
    "source": "naver_local"
  },
  {
    "storeName": "삼성스토어 신림",
    "region": "서울특별시 관악구",
    "category": "삼성디지털프라자",
    "latitude": 37.4888584,
    "longitude": 126.9284542,
    "address": "서울특별시 관악구 신림동 1428-1",
    "roadAddress": "서울특별시 관악구 신림로 386",
    "matchedName": "삼성스토어 신림",
    "geocoded": true,
    "approximate": false,
    "source": "naver_local"
  },
  {
    "storeName": "삼성스토어 신정",
    "region": "서울특별시 양천구",
    "category": "삼성디지털프라자",
    "latitude": 37.5128103,
    "longitude": 126.8556737,
    "address": "서울특별시 양천구 신정동 1268 복합메디컬센터 B1층",
    "roadAddress": "서울특별시 양천구 중앙로 181 복합메디컬센터 B1층",
    "matchedName": "삼성스토어 신정",
    "geocoded": true,
    "approximate": false,
    "source": "naver_local"
  },
  {
    "storeName": "삼성스토어 영등포",
    "region": "서울특별시 영등포구",
    "category": "삼성디지털프라자",
    "latitude": 37.5056432,
    "longitude": 126.9090045,
    "address": "서울특별시 영등포구 신길동 261",
    "roadAddress": "서울특별시 영등포구 가마산로 476",
    "matchedName": "삼성스토어 영등포",
    "geocoded": true,
    "approximate": false,
    "source": "naver_local"
  },
  {
    "storeName": "삼성스토어 왕십리",
    "region": "서울특별시 성동구",
    "category": "삼성디지털프라자",
    "latitude": 37.5595397,
    "longitude": 127.0335636,
    "address": "서울특별시 성동구 행당동 318-19",
    "roadAddress": "서울특별시 성동구 고산자로 217",
    "matchedName": "삼성스토어 왕십리",
    "geocoded": true,
    "approximate": false,
    "source": "naver_local"
  },
  {
    "storeName": "삼성스토어 용산",
    "region": "서울특별시 용산구",
    "category": "삼성디지털프라자",
    "latitude": 37.5463256,
    "longitude": 126.9722377,
    "address": "서울특별시 용산구 갈월동 14-60",
    "roadAddress": "서울특별시 용산구 한강대로 314",
    "matchedName": "삼성스토어 용산",
    "geocoded": true,
    "approximate": false,
    "source": "naver_local"
  },
  {
    "storeName": "삼성스토어 은평불광",
    "region": "서울특별시 은평구",
    "category": "삼성디지털프라자",
    "latitude": 37.613144,
    "longitude": 126.9279669,
    "address": "서울특별시 은평구 불광동 251-2 삼성전자디지털센터",
    "roadAddress": "서울특별시 은평구 통일로 760 삼성전자디지털센터",
    "matchedName": "삼성스토어 은평불광",
    "geocoded": true,
    "approximate": false,
    "source": "naver_local"
  },
  {
    "storeName": "삼성스토어 청담",
    "region": "서울 강남구",
    "category": "삼성디지털프라자",
    "latitude": 37.5226391,
    "longitude": 127.0389239,
    "address": "서울특별시 강남구 논현동 94-2",
    "roadAddress": "서울특별시 강남구 도산대로 336",
    "matchedName": "삼성스토어 청담",
    "geocoded": true,
    "approximate": false,
    "source": "naver_local"
  },
  {
    "storeName": "삼성스토어 홍대",
    "region": "서울특별시 마포구",
    "category": "삼성디지털프라자",
    "latitude": 37.5574752,
    "longitude": 126.9240434,
    "address": "서울특별시 마포구 동교동 156-4",
    "roadAddress": "서울특별시 마포구 양화로 171",
    "matchedName": "삼성스토어 홍대",
    "geocoded": true,
    "approximate": false,
    "source": "naver_local"
  },
  {
    "storeName": "서울시청자미디어센터",
    "region": "서울특별시 성북구",
    "category": "지자체(구청, 행정복지센터 등)",
    "latitude": 37.6037509,
    "longitude": 127.0224636,
    "address": "서울특별시 성북구 길음동 1286-8 서울성북미디어문화마루",
    "roadAddress": "서울특별시 성북구 길음로7길 20 서울성북미디어문화마루",
    "matchedName": "서울시청자미디어센터",
    "geocoded": true,
    "approximate": false,
    "source": "naver_local"
  },
  {
    "storeName": "수서아파트",
    "region": "서울 강남구",
    "category": "공동주택(아파트 등)",
    "latitude": 37.4924526,
    "longitude": 127.0891462,
    "address": "서울특별시 강남구 일원동 711",
    "roadAddress": "서울특별시 강남구 양재대로55길 12 수서아파트",
    "matchedName": "수서아파트 관리사무소",
    "geocoded": true,
    "approximate": false,
    "source": "naver_local"
  },
  {
    "storeName": "수서한아름아파트",
    "region": "서울 강남구",
    "category": "공동주택(아파트 등)",
    "latitude": 37.4893132,
    "longitude": 127.1034312,
    "address": "서울특별시 강남구 수서동 712",
    "roadAddress": "서울특별시 강남구 광평로51길 22",
    "matchedName": "수서한아름아파트 폐가전수거함",
    "geocoded": true,
    "approximate": false,
    "source": "naver_local"
  },
  {
    "storeName": "신림1단지",
    "region": "서울특별시 관악구",
    "category": "공동주택(아파트 등)",
    "latitude": 37.4660927,
    "longitude": 126.9277583,
    "address": "서울특별시 관악구 신림동 1704-1",
    "roadAddress": "서울특별시 관악구 광신길 160",
    "matchedName": "신림1단지 폐가전수거함",
    "geocoded": true,
    "approximate": false,
    "source": "naver_local"
  },
  {
    "storeName": "아카데미스위트아파트",
    "region": "서울특별시 강남구",
    "category": "중소폐가전",
    "latitude": 37.488519008899,
    "longitude": 127.05179586971,
    "address": "서울특별시 강남구 언주로30길 21",
    "roadAddress": "서울특별시 강남구 언주로30길 21",
    "matchedName": "아카데미스위트아파트",
    "geocoded": true,
    "approximate": false,
    "source": "manual_official_site"
  },
  {
    "storeName": "역삼경남아파트",
    "region": "서울 강남구",
    "category": "공동주택(아파트 등)",
    "latitude": 37.5005747,
    "longitude": 127.0423208,
    "address": "서울특별시 강남구 역삼동 722 경남아파트",
    "roadAddress": "서울특별시 강남구 언주로85길 13 경남아파트",
    "matchedName": "쏘카 역삼경남아파트 상가주차장",
    "geocoded": true,
    "approximate": false,
    "source": "naver_local"
  },
  {
    "storeName": "역삼자이아파트",
    "region": "서울 강남구",
    "category": "공동주택(아파트 등)",
    "latitude": 37.5007231,
    "longitude": 127.0444313,
    "address": "서울특별시 강남구 역삼동 711-3",
    "roadAddress": "서울특별시 강남구 언주로 420",
    "matchedName": "역삼자이아파트",
    "geocoded": true,
    "approximate": false,
    "source": "naver_local"
  },
  {
    "storeName": "염리종합사회복지관",
    "region": "서울특별시 마포구",
    "category": "공동주택(아파트 등)",
    "latitude": 37.5546353,
    "longitude": 126.9487378,
    "address": "서울특별시 마포구 염리동 532-2 염리종합사회복지관",
    "roadAddress": "서울특별시 마포구 대흥로24길 50 염리종합사회복지관",
    "matchedName": "염리종합사회복지관",
    "geocoded": true,
    "approximate": false,
    "source": "naver_local"
  },
  {
    "storeName": "영등포 문래롯데캐슬",
    "region": "서울특별시 영등포구",
    "category": "공동주택(아파트 등)",
    "latitude": 37.5181753,
    "longitude": 126.8856365,
    "address": "서울특별시 영등포구 문래동6가 57",
    "roadAddress": "서울특별시 영등포구 선유로9길 30",
    "matchedName": "영등포 문래롯데캐슬 폐가전수거함",
    "geocoded": true,
    "approximate": false,
    "source": "naver_local"
  },
  {
    "storeName": "월계주공1단지",
    "region": "서울특별시 노원구",
    "category": "공동주택(아파트 등)",
    "latitude": 37.6275386,
    "longitude": 127.0537497,
    "address": "서울특별시 노원구 월계동 556 월계주공1단지아파트",
    "roadAddress": "서울특별시 노원구 초안산로1길 15 월계주공1단지아파트",
    "matchedName": "월계주공1단지아파트",
    "geocoded": true,
    "approximate": false,
    "source": "naver_local"
  },
  {
    "storeName": "중계9단지",
    "region": "서울특별시 노원구",
    "category": "공동주택(아파트 등)",
    "latitude": 37.6428584,
    "longitude": 127.0739791,
    "address": "서울특별시 노원구 하계동 256",
    "roadAddress": "서울특별시 노원구 노원로16길 15",
    "matchedName": "중계9단지관리소",
    "geocoded": true,
    "approximate": false,
    "source": "naver_local"
  },
  {
    "storeName": "청담래미안로이뷰",
    "region": "서울 강남구",
    "category": "공동주택(아파트 등)",
    "latitude": 37.5248173,
    "longitude": 127.0559826,
    "address": "서울특별시 강남구 청담동 134",
    "roadAddress": "서울특별시 강남구 영동대로142길 16",
    "matchedName": "청담래미안로이뷰아파트",
    "geocoded": true,
    "approximate": false,
    "source": "naver_local"
  },
  {
    "storeName": "청담린든그로브아파트",
    "region": "서울 강남구",
    "category": "공동주택(아파트 등)",
    "latitude": 37.522609,
    "longitude": 127.0531587,
    "address": "서울특별시 강남구 청담동 67",
    "roadAddress": "",
    "matchedName": "청담린든그로브아파트입주자대표회의",
    "geocoded": true,
    "approximate": false,
    "source": "naver_local"
  },
  {
    "storeName": "청담자이아파트",
    "region": "서울 강남구",
    "category": "공동주택(아파트 등)",
    "latitude": 37.5242154,
    "longitude": 127.0567149,
    "address": "서울특별시 강남구 청담동 134-38",
    "roadAddress": "서울특별시 강남구 영동대로138길 12",
    "matchedName": "청담자이아파트",
    "geocoded": true,
    "approximate": false,
    "source": "naver_local"
  },
  {
    "storeName": "타워팰리스G동",
    "region": "서울 강남구",
    "category": "공동주택(아파트 등)",
    "latitude": 37.4872035,
    "longitude": 127.0530399,
    "address": "서울특별시 강남구 도곡동 467-29",
    "roadAddress": "서울특별시 강남구 언주로30길 26",
    "matchedName": "타워팰리스G동입주자대표회의",
    "geocoded": true,
    "approximate": false,
    "source": "naver_local"
  }
]